time,x,y,z,vx,vy,vz,roll,pitch,yaw,p,q,r
0.0,0.0,0.0,0.0,0.0,0.0,0.0,0.0,0.0,0.0,0.0,0.0,0.0
0.01,0.051250000000000004,0.10250000000000001,0.051500000000000004,5.125,10.25,5.15,0.0,0.0,0.0,0.0,0.0,0.0
0.02,0.10322468750000001,0.20644937500000002,0.10396955000000002,5.1974687500000005,10.394937500000001,5.246955000000001,0.0,0.0,0.0,0.0,0.0,0.0
0.03,0.15590382195312502,0.31180764390625004,0.15738321363500002,5.2679134453125,10.535826890625,5.341366363500001,0.0,0.0,0.0,0.0,0.0,0.0
0.04,0.2092671891062305,0.418534378212461,0.21171552566955953,5.336336715310547,10.672673430621094,5.433231203455951,0.0,0.0,0.0,0.0,0.0,0.0
0.05,0.2632946057905283,0.5265892115810566,0.26694099992607256,5.402741668429785,10.80548333685957,5.522547425651305,0.0,0.0,0.0,0.0,0.0,0.0
0.06,0.31796592465653556,0.6359318493130711,0.32303413714004264,5.467131886600725,10.93426377320145,5.609313721397009,0.0,0.0,0.0,0.0,0.0,0.0
0.07,0.3732610388527186,0.7465220777054372,0.37996943274073103,5.529511419618304,11.059022839236608,5.693529560068838,0.0,0.0,0.0,0.0,0.0,0.0
0.08,0.42915988664722665,0.8583197732944533,0.4377213845555903,5.589884779450803,11.179769558901606,5.775195181485928,0.0,0.0,0.0,0.0,0.0,0.0
0.09,0.4856424559921278,0.9712849119842556,0.4962645004369343,5.648256934490114,11.296513868980227,5.854311588134401,0.0,0.0,0.0,0.0,0.0,0.0
0.1,0.542688789029582,1.085377578059164,0.5555733058093338,5.70463330374541,11.40926660749082,5.930880537239949,0.0,0.0,0.0,0.0,0.0,0.0
0.11,0.6002789865394041,1.2005579730788083,0.6156223511362665,5.759019750982215,11.51803950196443,6.004904532693269,0.0,0.0,0.0,0.0,0.0,0.0
0.12,0.6583932123274933,1.3167864246549865,0.676386219304589,5.811422578808909,11.622845157617817,6.076386816832248,0.0,0.0,0.0,0.0,0.0,0.0
0.13,0.7170116975546196,1.4340233951092392,0.7378395329254369,5.861848522712632,11.723697045425263,6.145331362084789,0.0,0.0,0.0,0.0,0.0,0.0
0.14,0.776114745005086,1.552229490010172,0.7999569615501987,5.91030474504664,11.82060949009328,6.211742862476178,0.0,0.0,0.0,0.0,0.0,0.0
0.15,0.8356827332947965,1.671365466589593,0.8627132288002478,5.956798828971047,11.913597657942095,6.27562672500491,0.0,0.0,0.0,0.0,0.0,0.0
0.16,0.8956961210182861,1.7913922420365722,0.9260831194091563,6.001338772348967,12.002677544697933,6.336989060890854,0.0,0.0,0.0,0.0,0.0,0.0
0.17,0.9561354508342863,1.9122709016685726,0.9900414861761531,6.04393298160002,12.08786596320004,6.395836676699671,0.0,0.0,0.0,0.0,0.0,0.0
0.18,1.0169813534894179,2.0339627069788357,1.054563256829627,6.084590265513163,12.169180531026326,6.4521770653473896,0.0,0.0,0.0,0.0,0.0,0.0
0.19,1.0782145517796258,2.1564291035592515,1.1196234407995174,6.1233198290207955,12.246639658041591,6.5060183969890275,0.0,0.0,0.0,0.0,0.0,0.0
0.2,1.1398158644489866,2.2796317288979733,1.185197135897469,6.160131266936097,12.320262533872194,6.557369509795151,0.0,0.0,0.0,0.0,0.0,0.0
0.21,1.2017662100255417,2.4035324200510835,1.2512595349036717,6.195034557655512,12.390069115311023,6.606239900620276,0.0,0.0,0.0,0.0,0.0,0.0
0.22,1.2640466105938248,2.5280932211876497,1.3177859320593412,6.228040056828318,12.456080113656636,6.652639715566963,0.0,0.0,0.0,0.0,0.0,0.0
0.23,1.3266381955037767,2.6532763910075534,1.3847517294638363,6.25915849099519,12.51831698199038,6.696579740449513,0.0,0.0,0.0,0.0,0.0,0.0
0.24,1.3895222050157532,2.7790444100315064,1.4521324433754472,6.2884009511976435,12.576801902395287,6.738071391161103,0.0,0.0,0.0,0.0,0.0,0.0
0.25,1.452679993881356,2.905359987762712,1.5199037104149296,6.315778886560273,12.631557773120546,6.7771267039482295,0.0,0.0,0.0,0.0,0.0,0.0
0.26,1.5160930348598323,3.0321860697196645,1.5880412936708925,6.341304097847637,12.682608195695273,6.813758325596299,0.0,0.0,0.0,0.0,0.0,0.0
0.27,1.579742922169809,3.159485844339618,1.6565210887061945,6.3649887309976645,12.729977461995329,6.84797950353021,0.0,0.0,0.0,0.0,0.0,0.0
0.28,1.6436113748761434,3.287222749752287,1.7253191294645318,6.386845270633442,12.773690541266884,6.879804075833722,0.0,0.0,0.0,0.0,0.0,0.0
0.29,1.7076802402116955,3.415360480423391,1.7944115940764462,6.406886533555204,12.813773067110407,6.909246461191449,0.0,0.0,0.0,0.0,0.0,0.0
0.3,1.771931496833839,3.543862993667678,1.8637748105640186,6.425125662214359,12.850251324428719,6.936321648757241,0.0,0.0,0.0,0.0,0.0,0.0
0.31,1.8363472580155529,3.6726945160311057,1.9333852624435461,6.44157611817137,12.88315223634274,6.961045187952748,0.0,0.0,0.0,0.0,0.0,0.0
0.32,1.9009097747709456,3.801819549541891,2.0032195942255453,6.456251675539268,12.912503351078536,6.983433178199914,0.0,0.0,0.0,0.0,0.0,0.0
0.33,1.9656014389150915,3.931202877830183,2.073254616811457,6.469166414414602,12.938332828829203,7.003502258591149,0.0,0.0,0.0,0.0,0.0,0.0
0.34,2.0304047860580674,4.060809572116135,2.143467312786466,6.4803347142975785,12.960669428595157,7.021269597500893,0.0,0.0,0.0,0.0,0.0,0.0
0.35000000000000003,2.095302498533099,4.190604997066198,2.2138348416078886,6.489771247503151,12.979542495006301,7.036752882142291,0.0,0.0,0.0,0.0,0.0,0.0
0.36,2.160277408258747,4.320554816517494,2.284334544688615,6.497490972564791,12.994981945129583,7.0499703080726315,0.0,0.0,0.0,0.0,0.0,0.0
0.37,2.225312499535074,4.450624999070148,2.3549439503751275,6.503509127632674,13.007018255265349,7.0609405686512465,0.0,0.0,0.0,0.0,0.0,0.0
0.38,2.2903909117737538,4.5807818235475075,2.425640778819662,6.50784122386797,13.01568244773594,7.06968284445348,0.0,0.0,0.0,0.0,0.0,0.0
0.39,2.3554959421621033,4.710991884324207,2.4964029467461057,6.510503038834947,13.021006077669893,7.076216792644355,0.0,0.0,0.0,0.0,0.0,0.0
0.4,2.4206110482610286,4.841222096522057,2.5672085721092612,6.511510609892545,13.02302121978509,7.0805625363155285,0.0,0.0,0.0,0.0,0.0,0.0
0.41000000000000003,2.4857198505368996,4.971439701073799,2.638035978647152,6.510880227587094,13.021760455174189,7.082740653789095,0.0,0.0,0.0,0.0,0.0,0.0
0.42,2.5508061348273774,5.101612269654755,2.70886370032607,6.508628429047801,13.017256858095601,7.08277216789179,0.0,0.0,0.0,0.0,0.0,0.0
0.43,2.615853854741244,5.231707709482488,2.779670485678101,6.504771991386638,13.009543982773277,7.08067853520309,0.0,0.0,0.0,0.0,0.0,0.0
0.44,2.6808471339922866,5.361694267984573,2.8504353020309083,6.49932792510424,12.99865585020848,7.076481635280715,0.0,0.0,0.0,0.0,0.0,0.0
0.45,2.7457702686673207,5.491540537334641,2.921137339629578,6.492313467503391,12.984626935006782,7.070203759866981,0.0,0.0,0.0,0.0,0.0,0.0
0.46,2.8106077294284373,5.621215458856875,2.991756015650372,6.483746076111673,12.967492152223347,7.061867602079424,0.0,0.0,0.0,0.0,0.0,0.0
0.47000000000000003,2.8753441636495856,5.750688327299171,3.0622709781062634,6.473643422114846,12.947286844229692,7.051496245589119,0.0,0.0,0.0,0.0,0.0,0.0
0.48,2.93996439748761,5.87992879497522,3.132662109644164,6.4620233838024586,12.924046767604917,7.03911315379004,0.0,0.0,0.0,0.0,0.0,0.0
0.49,3.0044534378878827,6.008906875775765,3.202909531233792,6.4489040400272435,12.897808080054487,7.024742158962814,0.0,0.0,0.0,0.0,0.0,0.0
0.5,3.0687964745246803,6.137592949049361,3.272993605748154,6.434303663679774,12.868607327359548,7.008407451436172,0.0,0.0,0.0,0.0,0.0,0.0
0.51,3.132978881676479,6.265957763352958,3.3428949414356475,6.418240715179859,12.836481430359719,6.990133568749366,0.0,0.0,0.0,0.0,0.0,0.0
0.52,3.1969862200363406,6.393972440072681,3.4125943952838353,6.4007338359861485,12.801467671972297,6.969945384818803,0.0,0.0,0.0,0.0,0.0,0.0
0.53,3.2608042384575944,6.521608476915189,3.4820730762749563,6.381801842125379,12.763603684250757,6.9478680991121,0.0,0.0,0.0,0.0,0.0,0.0
0.54,3.324418875635021,6.648837751270042,3.551312348533284,6.361463717742685,12.72292743548537,6.92392722583273,0.0,0.0,0.0,0.0,0.0,0.0
0.55,3.387816261721765,6.77563252344353,3.620293834364468,6.339738608674383,12.679477217348767,6.898148583118404,0.0,0.0,0.0,0.0,0.0,0.0
0.56,3.450982719882211,6.901965439764422,3.6889994171870306,6.316645816044595,12.63329163208919,6.870558282256286,0.0,0.0,0.0,0.0,0.0,0.0
0.5700000000000001,3.513904767781082,7.027809535562164,3.7574112443562115,6.292204789887093,12.584409579774187,6.841182716918112,0.0,0.0,0.0,0.0,0.0,0.0
0.58,3.5765691190090187,7.1531382380180375,3.825511729880394,6.266435122793696,12.532870245587391,6.810048552418245,0.0,0.0,0.0,0.0,0.0,0.0
0.59,3.638962684444924,7.277925368889848,3.8932835570303705,6.239356543590533,12.478713087181067,6.77718271499765,0.0,0.0,0.0,0.0,0.0,0.0
0.6,3.701072573555359,7.402145147110718,3.960709680841738,6.210988911043505,12.42197782208701,6.742612381136762,0.0,0.0,0.0,0.0,0.0,0.0
0.61,3.762886095631301,7.525772191262602,4.0277733305107395,6.181352207594186,12.362704415188372,6.706364966900143,0.0,0.0,0.0,0.0,0.0,0.0
0.62,3.824390760962576,7.648781521925152,4.094458011683898,6.150466533127461,12.300933066254922,6.668468117315819,0.0,0.0,0.0,0.0,0.0,0.0
0.63,3.885574281950297,7.771148563900594,4.160747508641819,6.118352098772122,12.236704197544244,6.628949695792144,0.0,0.0,0.0,0.0,0.0,0.0
0.64,3.9464245741576534,7.892849148315307,4.226625886377569,6.085029220735644,12.170058441471287,6.587837773574968,0.0,0.0,0.0,0.0,0.0,0.0
0.65,4.006929757299397,8.013859514598794,4.292077492570048,6.0505183141743455,12.101036628348691,6.545160619247891,0.0,0.0,0.0,0.0,0.0,0.0
0.66,4.067078156170398,8.134156312340796,4.357086959452831,6.014839887100117,12.029679774200234,6.500946688278311,0.0,0.0,0.0,0.0,0.0,0.0
0.67,4.126858301513646,8.253716603027293,4.42163920557895,5.978014534324856,11.956029068649713,6.455224612611943,0.0,0.0,0.0,0.0,0.0,0.0
0.68,4.186258930828084,8.372517861656169,4.4857194374821345,5.940062931443767,11.880125862887533,6.408023190318455,0.0,0.0,0.0,0.0,0.0,0.0
0.6900000000000001,4.245268989116671,8.490537978233341,4.549313151235043,5.901005828858627,11.802011657717253,6.359371375290807,0.0,0.0,0.0,0.0,0.0,0.0
0.7000000000000001,4.303877629575092,8.607755259150183,4.6124061339050515,5.860864045842124,11.721728091684248,6.309298267000847,0.0,0.0,0.0,0.0,0.0,0.0
0.71,4.3620742142215345,8.724148428443069,4.674984464908189,5.819658464644326,11.639316929288652,6.257833100313687,0.0,0.0,0.0,0.0,0.0,0.0
0.72,4.419848314467958,8.839696628935917,4.737034517261821,5.777410024642345,11.55482004928469,6.205005235363304,0.0,0.0,0.0,0.0,0.0,0.0
0.73,4.477189711633301,8.954379423266602,4.798542958736739,5.734139716534222,11.468279433068444,6.150844147491816,0.0,0.0,0.0,0.0,0.0,0.0
0.74,4.534088397399081,9.068176794798163,4.859496752909287,5.689868576578047,11.379737153156094,6.095379417254796,0.0,0.0,0.0,0.0,0.0,0.0
0.75,4.5905345742078545,9.181069148415709,4.919883160114237,5.64461768087729,11.28923536175458,6.03864072049497,0.0,0.0,0.0,0.0,0.0,0.0
0.76,4.646518655604988,9.293037311209975,4.979689738299103,5.59840813971332,11.19681627942664,5.980657818486593,0.0,0.0,0.0,0.0,0.0,0.0
0.77,4.702031266524248,9.404062533048496,5.038904343780631,5.5512610919260625,11.102522183852125,5.921460548152754,0.0,0.0,0.0,0.0,0.0,0.0
0.78,4.757063243517685,9.51412648703537,5.097515131904209,5.503197699343696,11.006395398687392,5.861078812357807,0.0,0.0,0.0,0.0,0.0,0.0
0.79,4.811605634930308,9.623211269860615,5.15551055760698,5.454239141262317,10.908478282524634,5.799542570277103,0.0,0.0,0.0,0.0,0.0,0.0
0.8,4.865649701020072,9.731299402040143,5.212879375885441,5.404406608976436,10.808813217952872,5.736881827846123,0.0,0.0,0.0,0.0,0.0,0.0
0.81,4.919186914023683,9.838373828047366,5.269610642168352,5.353721300361171,10.707442600722342,5.673126628291098,0.0,0.0,0.0,0.0,0.0,0.0
0.8200000000000001,4.9722089581687525,9.944417916337505,5.3256937125957835,5.302204414506967,10.604408829013934,5.608307042743136,0.0,0.0,0.0,0.0,0.0,0.0
0.8300000000000001,5.024707729632829,10.049415459265658,5.381118244205162,5.249877146407679,10.499754292815359,5.542453160937831,0.0,0.0,0.0,0.0,0.0,0.0
0.84,5.076675336449857,10.153350672899714,5.4358741950251845,5.1967606817027825,10.393521363405565,5.4755950820022985,0.0,0.0,0.0,0.0,0.0,0.0
0.85,5.128104098364602,10.256208196729204,5.4899518240785,5.142876191474508,10.285752382949015,5.40776290533152,0.0,0.0,0.0,0.0,0.0,0.0
0.86,5.178986546635609,10.357973093271218,5.543341691294058,5.088244827100647,10.176489654201294,5.338986721555849,0.0,0.0,0.0,0.0,0.0,0.0
0.87,5.229315423787247,10.458630847574494,5.5960346573300725,5.03288771516375,10.0657754303275,5.269296603601469,0.0,0.0,0.0,0.0,0.0,0.0
0.88,5.279083683311421,10.558167366622841,5.6480218833085285,4.976825952417431,9.953651904834862,5.198722597845553,0.0,0.0,0.0,0.0,0.0,0.0
0.89,5.328284489319525,10.65656897863905,5.699294830462207,4.920080600810471,9.840161201620942,5.1272947153678405,0.0,0.0,0.0,0.0,0.0,0.0
0.9,5.376911216145219,10.753822432290438,5.74984525969521,4.862672682569379,9.725345365138757,5.055042923300296,0.0,0.0,0.0,0.0,0.0,0.0
0.91,5.4249574478986196,10.849914895797239,5.799665231057975,4.804623175340055,9.60924635068011,4.981997136276436,0.0,0.0,0.0,0.0,0.0,0.0
0.92,5.472416977972512,10.944833955945024,5.848747103137794,4.745953007389189,9.491906014778378,4.908187207981932,0.0,0.0,0.0,0.0,0.0,0.0
0.93,5.5192838085011715,11.038567617002343,5.8970835323658735,4.686683052865984,9.373366105731968,4.833642922807979,0.0,0.0,0.0,0.0,0.0,0.0
0.9400000000000001,5.56555214977242,11.13110429954484,5.944667472241963,4.626834127124795,9.25366825424959,4.7583939876089225,0.0,0.0,0.0,0.0,0.0,0.0
0.9500000000000001,5.611216419593512,11.222432839187023,5.991492172477619,4.5664269821092365,9.132853964218473,4.682470023565575,0.0,0.0,0.0,0.0,0.0,0.0
0.96,5.656271242611495,11.31254248522299,6.037551178059175,4.505482301798307,9.010964603596614,4.60590055815559,0.0,0.0,0.0,0.0,0.0,0.0
0.97,5.7007114495886455,11.401422899177291,6.082838328231498,4.444020697715037,8.888041395430074,4.528715017232259,0.0,0.0,0.0,0.0,0.0,0.0
0.98,5.744532076633627,11.489064153267254,6.127347755403628,4.38206270449817,8.76412540899634,4.450942717212992,0.0,0.0,0.0,0.0,0.0,0.0
0.99,5.787728364389,11.575456728778,6.1710738839774155,4.319628775537348,8.639257551074696,4.372612857378752,0.0,0.0,0.0,0.0,0.0,0.0
1.0,5.830295757175723,11.660591514351445,6.214011429100272,4.256739278672249,8.513478557344499,4.293754512285642,0.0,0.0,0.0,0.0,0.0,0.0
1.01,5.872229902095284,11.744459804190567,6.2561553953431694,4.193414491956134,8.386828983912268,4.214396624289778,0.0,0.0,0.0,0.0,0.0,0.0
1.02,5.913526648090126,11.827053296180251,6.297501075305036,4.129674599484191,8.259349198968382,4.134567996186585,0.0,0.0,0.0,0.0,0.0,0.0
1.03,5.954182044962996,11.908364089925993,6.338044048144691,4.065539687287096,8.131079374574192,4.054297283965568,0.0,0.0,0.0,0.0,0.0,0.0
1.04,5.994192342355897,11.988384684711795,6.377780178041506,4.00102973929015,8.0020594785803,3.9736129896815724,0.0,0.0,0.0,0.0,0.0,0.0
1.05,6.033553988689281,12.067107977378562,6.416705612585941,3.9361646333383513,7.872329266676703,3.8925434544435116,0.0,0.0,0.0,0.0,0.0,0.0
1.06,6.072263630062158,12.144527260124317,6.454816781101156,3.8709641372877357,7.741928274575471,3.8111168515214984,0.0,0.0,0.0,0.0,0.0,0.0
1.07,6.110318109113791,12.220636218227583,6.492110392896889,3.8054479051633043,7.610895810326609,3.7293611795732486,0.0,0.0,0.0,0.0,0.0,0.0
1.08,6.147714463847629,12.295428927695259,6.528583435456794,3.7396354733838266,7.479270946767653,3.6473042559906097,0.0,0.0,0.0,0.0,0.0,0.0
1.09,6.184449926418167,12.368899852836334,6.564233172560464,3.673546257053798,7.347092514107596,3.564973710367,0.0,0.0,0.0,0.0,0.0,0.0
1.1,6.220521921881395,12.44104384376279,6.599057142341329,3.607199546322806,7.214399092645612,3.4823969780865163,0.0,0.0,0.0,0.0,0.0,0.0
1.11,6.2559280669095205,12.511856133819041,6.633053155281683,3.5406145028125433,7.081229005625087,3.3996012940354117,0.0,0.0,0.0,0.0,0.0,0.0
1.12,6.290666168470637,12.581332336941275,6.666219292146049,3.47381015611168,6.94762031222336,3.3166136864366074,0.0,0.0,0.0,0.0,0.0,0.0
1.1300000000000001,6.324734222474025,12.64946844494805,6.698553901854127,3.406805400338797,6.813610800677594,3.2334609708078603,0.0,0.0,0.0,0.0,0.0,0.0
1.1400000000000001,6.358130412381761,12.716260824763522,6.730055599294569,3.3396189907735585,6.679237981547117,3.1501697440441583,0.0,0.0,0.0,0.0,0.0,0.0
1.1500000000000001,6.390853107787324,12.781706215574648,6.760723263080817,3.272269540556279,6.544539081112558,3.0667663786248793,0.0,0.0,0.0,0.0,0.0,0.0
1.16,6.4229008629618844,12.845801725923769,6.7905560332502795,3.204775517456033,6.409551034912066,2.9832770169462064,0.0,0.0,0.0,0.0,0.0,0.0
1.17,6.454272415368958,12.908544830737917,6.8195533089080715,3.137155240707425,6.27431048141485,2.899727565779236,0.0,0.0,0.0,0.0,0.0,0.0
1.18,6.4849666841481195,12.969933368296239,6.847714745816614,3.0694268779161273,6.138853755832255,2.8161436908542017,0.0,0.0,0.0,0.0,0.0,0.0
1.19,6.514982768568452,13.029965537136905,6.875040253932325,3.0016084420332634,6.003216884066527,2.732550811571161,0.0,0.0,0.0,0.0,0.0,0.0
1.2,6.54431994645244,13.08863989290488,6.9015299948907,2.9337177883987193,5.867435576797439,2.64897409583748,0.0,0.0,0.0,0.0,0.0,0.0
1.21,6.572977672570974,13.145955345141948,6.927184379441023,2.865772611853421,5.731545223706842,2.5654384550323845,0.0,0.0,0.0,0.0,0.0,0.0
1.22,6.60095557701018,13.20191115402036,6.952004064832011,2.7977904439206127,5.595580887841225,2.4819685390988306,0.0,0.0,0.0,0.0,0.0,0.0
1.23,6.628253463510742,13.256506927021483,6.97598995214964,2.729788650056152,5.459577300112304,2.398588731762882,0.0,0.0,0.0,0.0,0.0,0.0
1.24,6.65487130778042,13.30974261556084,6.999143183608448,2.661784426967822,5.323568853935644,2.315323145880764,0.0,0.0,0.0,0.0,0.0,0.0
1.25,6.680809255780456,13.361618511560913,7.021465139797585,2.5937948000036335,5.187589600007267,2.2321956189137033,0.0,0.0,0.0,0.0,0.0,0.0
1.26,6.706067621986548,13.412135243973095,7.042957436882891,2.5258366206090854,5.051673241218171,2.149229708530638,0.0,0.0,0.0,0.0,0.0,0.0
1.27,6.730646887625081,13.461293775250162,7.06362192376628,2.4579265638533303,4.915853127706661,2.0664486883388453,0.0,0.0,0.0,0.0,0.0,0.0
1.28,6.754547698885323,13.509095397770645,7.0834606792037045,2.3900811260241697,4.780162252048339,1.9838755437424682,0.0,0.0,0.0,0.0,0.0,0.0
1.29,6.7777708651082405,13.555541730216481,7.102476008882994,2.3223166222917953,4.6446332445835905,1.9015329679289323,0.0,0.0,0.0,0.0,0.0,0.0
1.3,6.800317356952652,13.600634713905304,7.120670442462826,2.2546491844411714,4.509298368882343,1.8194433579831528,0.0,0.0,0.0,0.0,0.0,0.0
1.31,6.822188304539382,13.644376609078764,7.13804673057412,2.1870947586729432,4.3741895173458865,1.7376288111294362,0.0,0.0,0.0,0.0,0.0,0.0
1.32,6.843384995574109,13.686769991148218,7.15460784178513,2.119669103472729,4.239338206945458,1.6561111211009183,0.0,0.0,0.0,0.0,0.0,0.0
1.33,6.863908873449596,13.727817746899191,7.170356959531493,2.0523877875486494,4.104775575097299,1.5749117746363548,0.0,0.0,0.0,0.0,0.0,0.0
1.34,6.883761535327965,13.76752307065593,7.185297479012534,1.9852661878369227,3.9705323756738453,1.4940519481040466,0.0,0.0,0.0,0.0,0.0,0.0
1.35,6.902944730203719,13.805889460407437,7.19943300405506,1.9183194875753544,3.836638975150709,1.41355250425263,0.0,0.0,0.0,0.0,0.0,0.0
1.36,6.921460356948164,13.842920713896328,7.212767343945945,1.8515626744445077,3.7031253488890155,1.333433989088452,0.0,0.0,0.0,0.0,0.0,0.0
1.37,6.939310462335928,13.878620924671855,7.225304510234737,1.7850105387763582,3.5700210775527164,1.2537166288791888,0.0,0.0,0.0,0.0,0.0,0.0
1.3800000000000001,6.9564972390542295,13.912994478108459,7.23704871350757,1.7186776718301964,3.4373553436603927,1.174420327283355,0.0,0.0,0.0,0.0,0.0,0.0
1.3900000000000001,6.973023023695585,13.94604604739117,7.248004360133623,1.6525784641355388,3.3051569282710775,1.0955646626052946,0.0,0.0,0.0,0.0,0.0,0.0
1.4000000000000001,6.9888902947346025,13.977780589469205,7.2581760489853755,1.586727103901794,3.173454207803588,1.0171688851752327,0.0,0.0,0.0,0.0,0.0,0.0
1.41,7.004101670489547,14.008203340979094,7.267568568133915,1.521137575494411,3.042275150988822,0.9392519148539192,0.0,0.0,0.0,0.0,0.0,0.0
1.42,7.018659907069319,14.037319814138637,7.2761868915205286,1.455823657977228,2.911647315954456,0.8618323386613624,0.0,0.0,0.0,0.0,0.0,0.0
1.43,7.032567896306526,14.065135792613052,7.28403617560582,1.390798923720723,2.781597847441446,0.7849284085291328,0.0,0.0,0.0,0.0,0.0,0.0
1.44,7.045828663677285,14.09165732735457,7.291121755997577,1.3260767370758524,2.6521534741517048,0.7085580391756667,0.0,0.0,0.0,0.0,0.0,0.0
1.45,7.058445366208416,14.116890732416833,7.297449144058617,1.2616702531131616,2.523340506226323,0.6327388061039825,0.0,0.0,0.0,0.0,0.0,0.0
1.46,7.070421290372685,14.14084258074537,7.303024023495829,1.1975924164268197,2.3951848328536394,0.557487943721184,0.0,0.0,0.0,0.0,0.0,0.0
1.47,7.081759849972717,14.163519699945434,7.30785224693162,1.1338559600032343,2.2677119200064686,0.48282234357909704,0.0,0.0,0.0,0.0,0.0,0.0
1.48,7.092464584014256,14.184929168028512,7.3119398324589735,1.070473404153884,2.140946808307768,0.4087585527353579,0.0,0.0,0.0,0.0,0.0,0.0
1.49,7.102539154569376,14.205078309138752,7.315292960181316,1.0074570555119884,2.0149141110239768,0.3353127722342348,0.0,0.0,0.0,0.0,0.0,0.0
1.5,7.111987344630302,14.223974689260604,7.317917968738381,0.944819006092634,1.889638012185268,0.26250085570645265,0.0,0.0,0.0,0.0,0.0,0.0
1.51,7.120813055954462,14.241626111908923,7.319821351819253,0.8825711324159504,1.7651422648319008,0.19033830808723673,0.0,0.0,0.0,0.0,0.0,0.0
1.52,7.129020306901391,14.258040613802782,7.321009754663771,0.8207250946929294,1.6414501893858588,0.11884028445178679,0.0,0.0,0.0,0.0,0.0,0.0
1.53,7.1366132302621255,14.273226460524251,7.321489970553444,0.7592923360734651,1.5185846721469303,0.04802158896735596,0.0,0.0,0.0,0.0,0.0,0.0
1.54,7.143596071081687,14.287192142163374,7.3212689372930555,0.6982840819561776,1.3965681639123553,-0.022103326038921095,0.0,0.0,0.0,0.0,0.0,0.0
1.55,7.149973184475282,14.299946368950565,7.320353733684082,0.6377113393595741,1.2754226787191483,-0.09152036089732385,0.0,0.0,0.0,0.0,0.0,0.0
1.56,7.155749033438823,14.311498066877647,7.318751575991094,0.5775848963540966,1.1551697927081932,-0.1602157692988731,0.0,0.0,0.0,0.0,0.0,0.0
1.57,7.1609281866543695,14.321856373308739,7.316469814402238,0.5179153215545849,1.0358306431091697,-0.22817615888561738,0.0,0.0,0.0,0.0,0.0,0.0
1.58,7.1655153162910965,14.331030632582193,7.313515929484949,0.45871296367267955,0.9174259273453591,-0.29538849172882853,0.0,0.0,0.0,0.0,0.0,0.0
1.59,7.169515195802383,14.339030391604766,7.309897528637988,0.39998795112867513,0.7999759022573503,-0.36184008469608847,0.0,0.0,0.0,0.0,0.0,0.0
1.6,7.172932697719606,14.345865395439212,7.3056223425409055,0.34175019172232923,0.6835003834446585,-0.42751860970826683,0.0,0.0,0.0,0.0,0.0,0.0
1.61,7.175772791443227,14.351545582886454,7.3006982216020315,0.284009372362116,0.568018744724232,-0.4924120938874116,0.0,0.0,0.0,0.0,0.0,0.0
1.62,7.178040541031751,14.356081082063502,7.2951331324060655,0.2267749588524145,0.453549917704829,-0.5565089195965985,0.0,0.0,0.0,0.0,0.0,0.0
1.6300000000000001,7.179741102989132,14.359482205978264,7.2889351541623375,0.17005619573809633,0.34011239147619265,-0.6197978243728145,0.0,0.0,0.0,0.0,0.0,0.0
1.6400000000000001,7.1808797240511915,14.361759448102383,7.282112475154798,0.11386210620598736,0.2277242124119747,-0.6822679007539566,0.0,0.0,0.0,0.0,0.0,0.0
1.6500000000000001,7.181461738971618,14.362923477943236,7.2746733891947875,0.05820149204264793,0.11640298408529585,-0.743908596001061,0.0,0.0,0.0,0.0,0.0,0.0
1.6600000000000001,7.181492568308097,14.362985136616194,7.266626292077619,0.003082933647931177,0.006165867295862354,-0.8047097117168942,0.0,0.0,0.0,0.0,0.0,0.0
1.67,7.180977716209134,14.361955432418268,7.2579796780439985,-0.051485209896250494,-0.10297041979250099,-0.8646614033620539,0.0,0.0,0.0,0.0,0.0,0.0
1.68,7.179922768202109,14.359845536404219,7.248742136247301,-0.105494800702516,-0.210989601405032,-0.9237541796697537,0.0,0.0,0.0,0.0,0.0,0.0
1.69,7.178333388983104,14.356666777966208,7.238922347227696,-0.15893792190054395,-0.3178758438010879,-0.9819789019604749,0.0,0.0,0.0,0.0,0.0,0.0
1.7,7.176215320209042,14.352430640418085,7.228529079394119,-0.21180687740611595,-0.4236137548122319,-1.0393267833577011,0.0,0.0,0.0,0.0,0.0,0.0
1.71,7.1735743782926695,14.347148756585339,7.21757118551506,-0.2640941916372806,-0.5281883832745612,-1.0957893879059475,0.0,0.0,0.0,0.0,0.0,0.0
1.72,7.170416452200887,14.340832904401774,7.206057599219136,-0.3157926091782245,-0.631585218356449,-1.1513586295923401,0.0,0.0,0.0,0.0,0.0,0.0
1.73,7.166747501256972,14.333495002513944,7.193997331506406,-0.366895094391464,-0.733790188782928,-1.2060267712729906,0.0,0.0,0.0,0.0,0.0,0.0
1.74,7.162573552947182,14.325147105894365,7.181399467271351,-0.41739483097897334,-0.8347896619579467,-1.2597864235054526,0.0,0.0,0.0,0.0,0.0,0.0
1.75,7.157900700732254,14.315801401464508,7.168273161838466,-0.46728522149286333,-0.9345704429857267,-1.3126305432885386,0.0,0.0,0.0,0.0,0.0,0.0
1.76,7.152735101864292,14.305470203728584,7.154627637511358,-0.5165598867962415,-1.033119773592483,-1.3645524327108076,0.0,0.0,0.0,0.0,0.0,0.0
1.77,7.1470829752095435,14.294165950419087,7.140472180136268,-0.5652126654748867,-1.1304253309497734,-1.4155457375090401,0.0,0.0,0.0,0.0,0.0,0.0
1.78,7.14095059907754,14.28190119815508,7.125816135680887,-0.6132376132003768,-1.2264752264007537,-1.4656044455380377,0.0,0.0,0.0,0.0,0.0,0.0
1.79,7.134344309057086,14.268688618114172,7.110668906829357,-0.6606290020453115,-1.321258004090623,-1.514722885153084,0.0,0.0,0.0,0.0,0.0,0.0
1.8,7.127270495859573,14.254540991719146,7.095039949594293,-0.7073813197512852,-1.4147626395025703,-1.5628957235064345,0.0,0.0,0.0,0.0,0.0,0.0
1.81,7.119735603170071,14.239471206340141,7.078938769946701,-0.7534892689502615,-1.506978537900523,-1.6101179647591992,0.0,0.0,0.0,0.0,0.0,0.0
1.82,7.111746125506671,14.223492251013342,7.062374920464601,-0.7989477663400107,-1.5978955326800215,-1.6563849482100084,0.0,0.0,0.0,0.0,0.0,0.0
1.83,7.103308606088528,14.206617212177056,7.045357997001182,-0.8437519418142778,-1.6875038836285556,-1.701692346341846,0.0,0.0,0.0,0.0,0.0,0.0
1.84,7.094429634713045,14.18885926942609,7.027897635373297,-0.8878971375483481,-1.7757942750966962,-1.746036162788463,0.0,0.0,0.0,0.0,0.0,0.0
1.85,7.085115845642638,14.170231691285275,7.01000350807108,-0.9313789070406909,-1.8627578140813819,-1.7894127302217773,0.0,0.0,0.0,0.0,0.0,0.0
1.86,7.075373915501524,14.150747831003049,6.991685320989463,-0.97419301411135,-1.9483860282227,-1.831818708161692,0.0,0.0,0.0,0.0,0.0,0.0
1.87,7.065210561182947,14.130421122365894,6.972952810182365,-1.0163354318577746,-2.0326708637155493,-1.873251080709759,0.0,0.0,0.0,0.0,0.0,0.0
1.8800000000000001,7.054632537767259,14.109265075534518,6.953815738640284,-1.0578023415687707,-2.1156046831375415,-1.913707154208132,0.0,0.0,0.0,0.0,0.0,0.0
1.8900000000000001,7.043646636451286,14.087293272902572,6.934283893092031,-1.0985901315972644,-2.1971802631945287,-1.9531845548252593,0.0,0.0,0.0,0.0,0.0,0.0
1.9000000000000001,7.032259682489361,14.064519364978722,6.914367080831333,-1.1386953961925737,-2.2773907923851473,-1.9916812260697678,0.0,0.0,0.0,0.0,0.0,0.0
1.9100000000000001,7.020478533146432,14.040957066292863,6.894075126568993,-1.1781149342928823,-2.3562298685857646,-2.02919542623401,0.0,0.0,0.0,0.0,0.0,0.0
1.92,7.008310075663646,14.016620151327292,6.8734178693113055,-1.216845748278614,-2.433691496557228,-2.0657257257687394,0.0,0.0,0.0,0.0,0.0,0.0
1.93,6.995761225236771,13.991522450473543,6.852405159265402,-1.2548850426874192,-2.5097700853748384,-2.1012710045903913,0.0,0.0,0.0,0.0,0.0,0.0
1.94,6.982838923007857,13.965677846015714,6.831046854772177,-1.292230222891464,-2.584460445782928,-2.13583044932245,0.0,0.0,0.0,0.0,0.0,0.0
1.95,6.969550134070479,13.939100268140958,6.8093528192674535,-1.328878893737746,-2.657757787475492,-2.1694035504723903,0.0,0.0,0.0,0.0,0.0,0.0
1.96,6.955901845488958,13.911803690977916,6.787332918271996,-1.3648288581521302,-2.7296577163042604,-2.2019900995456902,0.0,0.0,0.0,0.0,0.0,0.0
1.97,6.94190106433188,13.88380212866376,6.764997016411012,-1.4000781157078328,-2.8001562314156656,-2.233590186098393,0.0,0.0,0.0,0.0,0.0,0.0
1.98,6.927554815720289,13.855109631440579,6.742354974463715,-1.434624861159052,-2.869249722318104,-2.2642041947297393,0.0,0.0,0.0,0.0,0.0,0.0
1.99,6.912870140890885,13.82574028178177,6.719416646443551,-1.4684674829404685,-2.936934965880937,-2.2938328020163534,0.0,0.0,0.0,0.0,0.0,0.0
2.0,6.8978540952745515,13.795708190549103,6.696191876709656,-1.5016045616333358,-3.0032091232666716,-2.322476973389496,0.0,0.0,0.0,0.0,0.0,0.0
2.0100000000000002,6.882513746590563,13.765027493181126,6.672690497110087,-1.5340348683988665,-3.068069736797733,-2.3501379599568906,0.0,0.0,0.0,0.0,0.0,0.0
2.02,6.8668561729567665,13.733712345913533,6.648922324157381,-1.565757363379642,-3.131514726759284,-2.376817295270624,0.0,0.0,0.0,0.0,0.0,0.0
2.0300000000000002,6.850888461016069,13.701776922032138,6.624897156236955,-1.5967711940697646,-3.1935423881395293,-2.4025167920426393,0.0,0.0,0.0,0.0,0.0,0.0
2.04,6.834617704079524,13.669235408159048,6.600624770848862,-1.627075693654469,-3.254151387308938,-2.427238538809322,0.0,0.0,0.0,0.0,0.0,0.0
2.05,6.818051000286325,13.63610200057265,6.576114921883395,-1.656670379319912,-3.313340758639824,-2.450984896546695,0.0,0.0,0.0,0.0,0.0,0.0
2.06,6.801195450780987,13.602390901561973,6.551377336931018,-1.6855549505338712,-3.3711099010677423,-2.47375849523773,0.0,0.0,0.0,0.0,0.0,0.0
2.07,6.784058157908006,13.568116315816011,6.526421714627085,-1.7137292872980572,-3.4274585745961144,-2.495562230393283,0.0,0.0,0.0,0.0,0.0,0.0
2.08,6.766646223424278,13.533292446848556,6.501257722031803,-1.7411934483727765,-3.482386896745553,-2.516399259528163,0.0,0.0,0.0,0.0,0.0,0.0
2.09,6.748966746729532,13.497933493459064,6.475894992045864,-1.7679476694746556,-3.5358953389493113,-2.5362729985938355,0.0,0.0,0.0,0.0,0.0,0.0
2.1,6.731026823115051,13.462053646230101,6.450343120862172,-1.7939923614481479,-3.5879847228962958,-2.5551871183692727,0.0,0.0,0.0,0.0,0.0,0.0
2.11,6.7128335420309355,13.425667084061871,6.424611665454058,-1.8193281084115431,-3.6386562168230863,-2.5731455408114456,0.0,0.0,0.0,0.0,0.0,0.0
2.12,6.6943939853721535,13.388787970744307,6.398710141100389,-1.8439556658782013,-3.6879113317564025,-2.590152435366953,0.0,0.0,0.0,0.0,0.0,0.0
2.13,6.675715225783616,13.351430451567232,6.372648018947926,-1.867875958853723,-3.735751917707446,-2.6062122152462956,0.0,0.0,0.0,0.0,0.0,0.0
2.14,6.656804324984519,13.313608649969037,6.346434723611303,-1.891090079909776,-3.782180159819552,-2.6213295336622706,0.0,0.0,0.0,0.0,0.0,0.0
2.15,6.637668332112166,13.275336664224332,6.320079630810963,-1.9135992872352916,-3.827198574470583,-2.6355092800339865,0.0,0.0,0.0,0.0,0.0,0.0
2.16,6.6183142820855085,13.236628564171017,6.293592065049383,-1.935405002665743,-3.870810005331486,-2.648756576157976,0.0,0.0,0.0,0.0,0.0,0.0
2.17,6.5987491939885965,13.197498387977193,6.266981297325905,-1.9565088096912233,-3.9130176193824466,-2.661076772347877,0.0,0.0,0.0,0.0,0.0,0.0
2.18,6.578980069474156,13.157960138948312,6.240256542890463,-1.9769124514440262,-3.9538249028880523,-2.672475443544176,0.0,0.0,0.0,0.0,0.0,0.0
2.19,6.559013891187491,13.118027782374982,6.213426959036508,-1.9966178286664393,-3.9932356573328787,-2.682958385395448,0.0,0.0,0.0,0.0,0.0,0.0
2.2,6.538857621210896,13.077715242421792,6.186501642933382,-2.015626997659462,-4.031253995318924,-2.6925316103125887,0.0,0.0,0.0,0.0,0.0,0.0
2.21,6.518518199528764,13.037036399057529,6.159489629498407,-2.033942168213139,-4.067884336426278,-2.701201343497464,0.0,0.0,0.0,0.0,0.0,0.0
2.22,6.498002542513572,12.996005085027145,6.132399889308933,-2.0515657015192263,-4.103131403038453,-2.7089740189474414,0.0,0.0,0.0,0.0,0.0,0.0
2.23,6.477317541432903,12.954635082865806,6.105241326554561,-2.0685001080668735,-4.137000216133747,-2.715856275437235,0.0,0.0,0.0,0.0,0.0,0.0
2.24,6.456470060977683,12.912940121955366,6.078022777029766,-2.084748045522027,-4.169496091044054,-2.7218549524794997,0.0,0.0,0.0,0.0,0.0,0.0
2.25,6.43546693781177,12.87093387562354,6.05075300616711,-2.1003123165912485,-4.200624633182497,-2.7269770862655975,0.0,0.0,0.0,0.0,0.0,0.0
2.2600000000000002,6.4143149791430645,12.828629958286129,6.02344070711123,-2.1151958668706303,-4.230391733741261,-2.7312299055879548,0.0,0.0,0.0,0.0,0.0,0.0
2.27,6.393020961316259,12.786041922632519,5.996094498833775,-2.129401782680501,-4.258803565361002,-2.734620827745412,0.0,0.0,0.0,0.0,0.0,0.0
2.2800000000000002,6.371591628427393,12.743183256854786,5.9687229242894455,-2.1429332888866024,-4.285866577773205,-2.7371574544329706,0.0,0.0,0.0,0.0,0.0,0.0
2.29,6.350033690960309,12.700067381920618,5.941334448613272,-2.155793746708421,-4.311587493416842,-2.738847567617324,0.0,0.0,0.0,0.0,0.0,0.0
2.3000000000000003,6.328353824445156,12.656707648890311,5.9139374573592765,-2.1679866515153448,-4.3359733030306895,-2.739699125399549,0.0,0.0,0.0,0.0,0.0,0.0
2.31,6.306558668139043,12.613117336278085,5.886540254780613,-2.17951563061132,-4.35903126122264,-2.7397202578663316,0.0,0.0,0.0,0.0,0.0,0.0
2.32,6.284654823728956,12.569309647457912,5.859151062151302,-2.1903844410086832,-4.3807688820173665,-2.7389192629310863,0.0,0.0,0.0,0.0,0.0,0.0
2.33,6.262648854057038,12.525297708114076,5.831778016129639,-2.2005969671918204,-4.401193934383641,-2.7373046021663145,0.0,0.0,0.0,0.0,0.0,0.0
2.34,6.2405472818683245,12.481094563736649,5.804429167163353,-2.2101572188713283,-4.420314437742657,-2.734884896628541,0.0,0.0,0.0,0.0,0.0,0.0
2.35,6.218356588581031,12.436713177162062,5.777112477936582,-2.219069328729323,-4.438138657458646,-2.731668922677156,0.0,0.0,0.0,0.0,0.0,0.0
2.36,6.196083213079466,12.392166426158932,5.749835821858697,-2.2273375501565553,-4.454675100313111,-2.7276656077884818,0.0,0.0,0.0,0.0,0.0,0.0
2.37,6.173733550529646,12.347467101059292,5.722606981595033,-2.234966254981977,-4.469932509963954,-2.7228840263663576,0.0,0.0,0.0,0.0,0.0,0.0
2.38,6.151313951217692,12.302627902435384,5.695433647639527,-2.2419599311953986,-4.483919862390797,-2.7173333955505448,0.0,0.0,0.0,0.0,0.0,0.0
2.39,6.128830719411053,12.257661438822106,5.668323416929285,-2.248323180663887,-4.496646361327774,-2.711023071024225,0.0,0.0,0.0,0.0,0.0,0.0
2.4,6.106290112242628,12.212580224485256,5.641283791501066,-2.2540607168425244,-4.508121433685049,-2.7039625428218614,0.0,0.0,0.0,0.0,0.0,0.0
2.41,6.083698338617826,12.167396677235653,5.614322177189679,-2.259177362480165,-4.51835472496033,-2.6961614311386746,0.0,0.0,0.0,0.0,0.0,0.0
2.42,6.061061558144618,12.122123116289236,5.587445882368249,-2.263678047320809,-4.527356094641618,-2.6876294821429783,0.0,0.0,0.0,0.0,0.0,0.0
2.43,6.038385880086606,12.076771760173212,5.560662116730323,-2.2675678058012165,-4.535135611602433,-2.678376563792596,0.0,0.0,0.0,0.0,0.0,0.0
2.44,6.015677362339153,12.031354724678305,5.533977990113757,-2.2708517747453696,-4.541703549490739,-2.6684126616565793,0.0,0.0,0.0,0.0,0.0,0.0
2.45,5.992942010428589,11.985884020857178,5.507400511366323,-2.273535191056395,-4.54707038211279,-2.657747874743426,0.0,0.0,0.0,0.0,0.0,0.0
2.46,5.970185776534524,11.940371553069047,5.480936587252954,-2.275623389406546,-4.551246778813092,-2.646392411336982,0.0,0.0,0.0,0.0,0.0,0.0
2.47,5.947414558535265,11.89482911707053,5.454593021404541,-2.277121799925844,-4.554243599851688,-2.634356584841201,0.0,0.0,0.0,0.0,0.0,0.0
2.48,5.924634199076365,11.84926839815273,5.428376513308192,-2.2780359458899673,-4.5560718917799345,-2.621650809634925,0.0,0.0,0.0,0.0,0.0,0.0
2.49,5.901850484662286,11.803700969324572,5.402293657338813,-2.2783714414079763,-4.556742882815953,-2.6082855969378214,0.0,0.0,0.0,0.0,0.0,0.0
2.5,5.879069144771181,11.758138289542362,5.376350941831927,-2.278133989110454,-4.556267978220908,-2.594271550688607,0.0,0.0,0.0,0.0,0.0,0.0
2.5100000000000002,5.856295850992795,11.71259170198559,5.35055474819756,-2.2773293778386288,-4.5546587556772575,-2.5796193634366786,0.0,0.0,0.0,0.0,0.0,0.0
2.52,5.833536216189444,11.667072432378887,5.3249113500750775,-2.2759634803350623,-4.551926960670125,-2.5643398122482384,0.0,0.0,0.0,0.0,0.0,0.0
2.5300000000000002,5.81079579368008,11.62159158736016,5.299426912528798,-2.2740422509364473,-4.548084501872895,-2.5484437546280083,0.0,0.0,0.0,0.0,0.0,0.0
2.54,5.788080076447389,11.576160152894778,5.274107491284222,-2.2715717232690853,-4.543143446538171,-2.5319421244575926,0.0,0.0,0.0,0.0,0.0,0.0
2.5500000000000003,5.765394496367913,11.530788992735825,5.248959032004707,-2.268558007947579,-4.537116015895158,-2.5148459279515434,0.0,0.0,0.0,0.0,0.0,0.0
2.56,5.7427444234651395,11.485488846930279,5.223987369608385,-2.2650072902773006,-4.530014580554601,-2.497166239632169,0.0,0.0,0.0,0.0,0.0,0.0
2.57,5.720135165185528,11.440270330371057,5.199198227625144,-2.260925827961156,-4.521851655922312,-2.478914198324099,0.0,0.0,0.0,0.0,0.0,0.0
2.58,5.697571965697416,11.395143931394832,5.174597217593448,-2.256319948811183,-4.512639897622366,-2.460101003169612,0.0,0.0,0.0,0.0,0.0,0.0
2.59,5.675060005212761,11.350120010425522,5.15018983849679,-2.251196048465506,-4.502392096931012,-2.4407379096657196,0.0,0.0,0.0,0.0,0.0,0.0
2.6,5.65260439933165,11.3052087986633,5.12598147623955,-2.2455605881111698,-4.4911211762223395,-2.420836225723966,0.0,0.0,0.0,0.0,0.0,0.0
2.61,5.630210198409516,11.260420396819033,5.101977403162011,-2.23942009221335,-4.4788401844267,-2.4004073077539125,0.0,0.0,0.0,0.0,0.0,0.0
2.62,5.607882386947002,11.215764773894003,5.078182777594299,-2.232781146251454,-4.465562292502908,-2.3794625567712337,0.0,0.0,0.0,0.0,0.0,0.0
2.63,5.5856258830023755,11.171251766004751,5.054602643448986,-2.2256503944626145,-4.451300788925229,-2.3580134145313507,0.0,0.0,0.0,0.0,0.0,0.0
2.64,5.563445537626445,11.12689107525289,5.031241929852091,-2.2180345375930477,-4.436069075186095,-2.3360713596895066,0.0,0.0,0.0,0.0,0.0,0.0
2.65,5.541346134319867,11.082692268639734,5.008105450812209,-2.2099403306577785,-4.419880661315557,-2.3136479039881745,0.0,0.0,0.0,0.0,0.0,0.0
2.66,5.519332388512775,11.03866477702555,4.985197904927483,-2.201374580709197,-4.402749161418394,-2.2907545884726592,0.0,0.0,0.0,0.0,0.0,0.0
2.67,5.497408947066626,10.994817894133252,4.962523875130125,-2.1923441446149248,-4.3846882892298495,-2.267402979735757,0.0,0.0,0.0,0.0,0.0,0.0
2.68,5.475580387798171,10.951160775596342,4.940087828468202,-2.1828559268454413,-4.3657118536908825,-2.243604666192303,0.0,0.0,0.0,0.0,0.0,0.0
2.69,5.453851219025452,10.907702438050904,4.917894115924358,-2.1729168772719407,-4.345833754543881,-2.219371254384426,0.0,0.0,0.0,0.0,0.0,0.0
2.7,5.432225879135704,10.864451758271407,4.895946972271174,-2.162533988974858,-4.325067977949716,-2.1947143653183128,0.0,0.0,0.0,0.0,0.0,0.0
2.71,5.410708736175069,10.821417472350138,4.874250515962841,-2.151714296063502,-4.303428592127004,-2.1696456308332643,0.0,0.0,0.0,0.0,0.0,0.0
2.72,5.389304087459997,10.778608174919993,4.852808749062803,-2.140464871507244,-4.280929743014488,-2.1441766900038166,0.0,0.0,0.0,0.0,0.0,0.0
2.73,5.36801615921021,10.73603231842042,4.831625557207047,-2.1287928249786714,-4.257585649957343,-2.118319185575663,0.0,0.0,0.0,0.0,0.0,0.0
2.74,5.346849106203119,10.693698212406238,4.810704709602685,-2.1167053007091403,-4.233410601418281,-2.0920847604361175,0.0,0.0,0.0,0.0,0.0,0.0
2.75,5.325807011449547,10.651614022899095,4.790049859061487,-2.104209475357127,-4.208418950714254,-2.065485054119837,0.0,0.0,0.0,0.0,0.0,0.0
2.7600000000000002,5.30489388589065,10.6097877717813,4.769664542067982,-2.091312555889794,-4.182625111779588,-2.0385316993504827,0.0,0.0,0.0,0.0,0.0,0.0
2.77,5.284113668115868,10.568227336231736,4.749552178881792,-2.0780217774781624,-4.156043554956325,-2.0112363186190176,0.0,0.0,0.0,0.0,0.0,0.0
2.7800000000000002,5.263470224101805,10.52694044820361,4.729716073673798,-2.0643444014062777,-4.1286888028125555,-1.983610520799281,0.0,0.0,0.0,0.0,0.0,0.0
2.79,5.242967346971858,10.485934693943715,4.7101594146957835,-2.05028771299476,-4.10057542598952,-1.9556658978015018,0.0,0.0,0.0,0.0,0.0,0.0
2.8000000000000003,5.2226087567764665,10.445217513552933,4.69088527448314,-2.035859019539109,-4.071718039078218,-1.9274140212643605,0.0,0.0,0.0,0.0,0.0,0.0
2.81,5.202398100293835,10.40479620058767,4.671896610090278,-2.0210656482631295,-4.042131296526259,-1.8988664392862111,0.0,0.0,0.0,0.0,0.0,0.0
2.82,5.182338950850957,10.364677901701913,4.653196263358318,-2.005914944287844,-4.011829888575688,-1.8700346731960575,0.0,0.0,0.0,0.0,0.0,0.0
2.83,5.162434808164794,10.324869616329588,4.634786961214669,-1.9904142686162396,-3.980828537232479,-1.8409302143648467,0.0,0.0,0.0,0.0,0.0,0.0
2.84,5.142689098203452,10.285378196406905,4.616671316004092,-1.9745709961341966,-3.9491419922683932,-1.8115645210576379,0.0,0.0,0.0,0.0,0.0,0.0
2.85,5.123105173067173,10.246210346134346,4.59885182585082,-1.9583925136279414,-3.916785027255883,-1.7819490153271842,0.0,0.0,0.0,0.0,0.0,0.0
2.86,5.10368631088899,10.20737262177798,4.581330875051326,-1.9418862178183414,-3.8837724356366827,-1.7520950799494368,0.0,0.0,0.0,0.0,0.0,0.0
2.87,5.084435715754866,10.168871431509732,4.564110734497311,-1.9250595134123831,-3.8501190268247663,-1.7220140554014822,0.0,0.0,0.0,0.0,0.0,0.0
2.88,5.065356517643145,10.13071303528629,4.547193562128488,-1.907919811172131,-3.815839622344262,-1.691717236882387,0.0,0.0,0.0,0.0,0.0,0.0
2.89,5.04645177238313,10.09290354476626,4.530581403414714,-1.8904745260014884,-3.7809490520029767,-1.661215871377418,0.0,0.0,0.0,0.0,0.0,0.0
2.9,5.027724461632619,10.055448923265239,4.514276191867053,-1.872731075051052,-3.745462150102104,-1.6305211547660856,0.0,0.0,0.0,0.0,0.0,0.0
2.91,5.009177492874206,10.018354985748411,4.498279749577308,-1.8546968758413567,-3.7093937516827133,-1.599644228974436,0.0,0.0,0.0,0.0,0.0,0.0
2.92,4.9908136994301575,9.981627398860315,4.4825937877855875,-1.8363793444047982,-3.6727586888095964,-1.5685961791720104,0.0,0.0,0.0,0.0,0.0,0.0
2.93,4.972635840495692,9.945271680991384,4.467219907475449,-1.817785893446504,-3.635571786893008,-1.5373880310138577,0.0,0.0,0.0,0.0,0.0,0.0
2.94,4.954646601190448,9.909293202380896,4.452159599996169,-1.798923930524431,-3.597847861048862,-1.5060307479279822,0.0,0.0,0.0,0.0,0.0,0.0
2.95,4.936848592627959,9.873697185255917,4.437414247711684,-1.779800856248948,-3.559601712497896,-1.4745352284485878,0.0,0.0,0.0,0.0,0.0,0.0
2.96,4.919244352002937,9.838488704005874,4.422985124675729,-1.7604240625021577,-3.5208481250043153,-1.4429123035954527,0.0,0.0,0.0,0.0,0.0,0.0
2.97,4.901836342696165,9.80367268539233,4.408873397332731,-1.7408009306772094,-3.481601861354419,-1.41117273429977,0.0,0.0,0.0,0.0,0.0,0.0
2.98,4.884626954396786,9.769253908793573,4.395080125243964,-1.7209388299378416,-3.4418776598756833,-1.3793272088767539,0.0,0.0,0.0,0.0,0.0,0.0
2.99,4.867618503241802,9.735237006483604,4.3816062618385105,-1.7008451154983826,-3.401690230996765,-1.3473863405453055,0.0,0.0,0.0,0.0,0.0,0.0
3.0,4.850813231972558,9.701626463945116,4.368452655188561,-1.6805271269244435,-3.361054253848887,-1.3153606649950076,0.0,0.0,0.0,0.0,0.0,0.0
3.0100000000000002,4.834213310108013,9.668426620216026,4.355620048808554,-1.6599921864545133,-3.3199843729090266,-1.2832606380007145,0.0,0.0,0.0,0.0,0.0,0.0
3.02,4.8178208341345865,9.635641668269173,4.343109082477704,-1.6392475973426688,-3.2784951946853376,-1.2510966330849642,0.0,0.0,0.0,0.0,0.0,0.0
3.0300000000000002,4.80163782771236,9.60327565542472,4.33092029308542,-1.6183006422226067,-3.2366012844452134,-1.2188789392284456,0.0,0.0,0.0,0.0,0.0,0.0
3.04,4.785666241897428,9.571332483794857,4.319054115499132,-1.5971585814931897,-3.1943171629863794,-1.186617758628724,0.0,0.0,0.0,0.0,0.0,0.0
3.0500000000000003,4.769907955380171,9.539815910760343,4.307510883454058,-1.5758286517256934,-3.151657303451387,-1.1543232045074108,0.0,0.0,0.0,0.0,0.0,0.0
3.06,4.754364774739242,9.508729549478485,4.2962908304643985,-1.5543180640929408,-3.1086361281858816,-1.1220052989659581,0.0,0.0,0.0,0.0,0.0,0.0
3.0700000000000003,4.739038434711038,9.478076869422075,4.285394090755497,-1.532634002820493,-3.065268005640986,-1.0896739708902305,0.0,0.0,0.0,0.0,0.0,0.0
3.08,4.723930598474437,9.447861196948875,4.274820700216456,-1.5107836236600642,-3.0215672473201285,-1.0573390539039935,0.0,0.0,0.0,0.0,0.0,0.0
3.09,4.709042857950584,9.418085715901167,4.264570597372742,-1.4887740523853248,-2.9775481047706496,-1.025010284371447,0.0,0.0,0.0,0.0,0.0,0.0
3.1,4.694376734117482,9.388753468234963,4.254643624378253,-1.4666123833102358,-2.9332247666204716,-0.9926972994489153,0.0,0.0,0.0,0.0,0.0,0.0
3.11,4.679933677339181,9.359867354678363,4.245039528026395,-1.4443056778300707,-2.8886113556601414,-0.9604096351857734,0.0,0.0,0.0,0.0,0.0,0.0
3.12,4.665715067709328,9.331430135418657,4.235757960779648,-1.4218609629852499,-2.8437219259704998,-0.9281567246747077,0.0,0.0,0.0,0.0,0.0,0.0
3.13,4.651722215408848,9.303444430817695,4.226798481817135,-1.3992852300481302,-2.7985704600962604,-0.8959478962513501,0.0,0.0,0.0,0.0,0.0,0.0
3.14,4.637956361077519,9.275912722155038,4.218160558099702,-1.3765854331328706,-2.7531708662657413,-0.863792371743351,0.0,0.0,0.0,0.0,0.0,0.0
3.15,4.624418676199234,9.248837352398468,4.2098435654520125,-1.35376848782848,-2.70753697565696,-0.8316992647689085,0.0,0.0,0.0,0.0,0.0,0.0
3.16,4.611110263500682,9.222220527001364,4.201846789661165,-1.3308412698551757,-2.6616825397103514,-0.7996775790847798,0.0,0.0,0.0,0.0,0.0,0.0
3.17,4.598032157363241,9.196064314726481,4.194169427591327,-1.3078106137441408,-2.6156212274882815,-0.7677362069837668,0.0,0.0,0.0,0.0,0.0,0.0
3.18,4.585185324247833,9.170370648495666,4.186810588313911,-1.2846833115407805,-2.569366623081561,-0.7358839277416692,0.0,0.0,0.0,0.0,0.0,0.0
3.19,4.572570663132518,9.145141326265035,4.179769294252774,-1.2614661115315688,-2.5229322230631377,-0.7041294061136701,0.0,0.0,0.0,0.0,0.0,0.0
3.2,4.560189005962572,9.120378011925144,4.173044482343974,-1.2381657169945663,-2.4763314339891327,-0.6724811908801169,0.0,0.0,0.0,0.0,0.0,0.0
3.21,4.5480411181128355,9.096082236225671,4.1666350052095575,-1.2147887849736851,-2.4295775699473703,-0.6409477134416354,0.0,0.0,0.0,0.0,0.0,0.0
3.22,4.536127698862068,9.072255397724136,4.160539632344922,-1.1913419250767694,-2.382683850153539,-0.609537286463506,0.0,0.0,0.0,0.0,0.0,0.0
3.23,4.5244493818790925,9.048898763758185,4.15475705131923,-1.1678316982975538,-2.3356633965951077,-0.5782581025692183,0.0,0.0,0.0,0.0,0.0,0.0
3.24,4.513006735720477,9.026013471440955,4.1492858689883985,-1.1442646158615555,-2.288529231723111,-0.5471182330831028,0.0,0.0,0.0,0.0,0.0,0.0
3.25,4.501800264339518,9.003600528679035,4.144124612720179,-1.1206471380959522,-2.2412942761919044,-0.5161256268219234,0.0,0.0,0.0,0.0,0.0,0.0
3.2600000000000002,4.490830407606283,8.981660815212566,4.139271731630826,-1.0969856733234804,-2.193971346646961,-0.48528810893530955,0.0,0.0,0.0,0.0,0.0,0.0
3.27,4.480097541838479,8.960195083676957,4.134725597832877,-1.0732865767804027,-2.1465731535608055,-0.4546133797948812,0.0,0.0,0.0,0.0,0.0,0.0
3.2800000000000002,4.469601980342893,8.939203960685786,4.1304845076935575,-1.0495561495585606,-2.099112299117121,-0.4241090139319184,0.0,0.0,0.0,0.0,0.0,0.0
3.29,4.459343973967178,8.918687947934355,4.1265466831033235,-1.0258006375715472,-2.0516012751430943,-0.39378245902340564,0.0,0.0,0.0,0.0,0.0,0.0
3.3000000000000003,4.4493237116617275,8.898647423323455,4.122910272754061,-1.0020262305450112,-2.0040524610900223,-0.3636410349262714,0.0,0.0,0.0,0.0,0.0,0.0
3.31,4.439541321051417,8.879082642102833,4.119573353426465,-0.9782390610311041,-1.9564781220622083,-0.33369193275963094,0.0,0.0,0.0,0.0,0.0,0.0
3.3200000000000003,4.429996869016946,8.859993738033891,4.116533931286116,-0.9544452034470788,-1.9088904068941577,-0.3039422140348286,0.0,0.0,0.0,0.0,0.0,0.0
3.33,4.4206903622855656,8.841380724571131,4.113789943187785,-0.9306506731380313,-1.8613013462760626,-0.27439880983306336,0.0,0.0,0.0,0.0,0.0,0.0
3.34,4.411621748030927,8.823243496061854,4.111339257987482,-0.9068614254637904,-1.813722850927581,-0.24506852003036605,0.0,0.0,0.0,0.0,0.0,0.0
3.35,4.402790914481828,8.805581828963655,4.1091796778617855,-0.8830833549099253,-1.7661667098198506,-0.21595801256968727,0.0,0.0,0.0,0.0,0.0,0.0
3.36,4.394197691539599,8.788395383079198,4.107308939633987,-0.8593222942228713,-1.7186445884457426,-0.18707382277984422,0.0,0.0,0.0,0.0,0.0,0.0
3.37,4.3858418514039075,8.771683702807815,4.105724716106576,-0.8355840135691328,-1.6711680271382656,-0.1584223527410656,0.0,0.0,0.0,0.0,0.0,0.0
3.38,4.377723109206722,8.755446218413445,4.104424617399608,-0.8118742197185389,-1.6237484394370778,-0.1300098706968518,0.0,0.0,0.0,0.0,0.0,0.0
3.39,4.369841123654207,8.739682247308414,4.103406192294489,-0.7881985552515218,-1.5763971105030437,-0.10184251051187158,0.0,0.0,0.0,0.0,0.0,0.0
3.4,4.3621954976763035,8.724390995352607,4.102666929582734,-0.7645625977903616,-1.5291251955807232,-0.07392627117558787,0.0,0.0,0.0,0.0,0.0,0.0
3.41,4.35478577908376,8.70957155816752,4.102204259419221,-0.7409718592543658,-1.4819437185087316,-0.046267016351314146,0.0,0.0,0.0,0.0,0.0,0.0
3.42,4.347611461232371,8.695222922464742,4.102015554679517,-0.7174317851389161,-1.4348635702778323,-0.0188704739703779,0.0,0.0,0.0,0.0,0.0,0.0
3.43,4.340671983694188,8.681343967388376,4.102098132320807,-0.6939477538183366,-1.3878955076366732,0.008257764128940137,0.0,0.0,0.0,0.0,0.0,0.0
3.44,4.333966732935463,8.667933465870926,4.102449254745987,-0.6705250758725081,-1.3410501517450162,0.035112242518026554,0.0,0.0,0.0,0.0,0.0,0.0
3.45,4.3274950430010914,8.654990086002183,4.1030661311704915,-0.6471689934371696,-1.2943379868743392,0.06168764245046651,0.0,0.0,0.0,0.0,0.0,0.0
3.46,4.321256196205313,8.642512392410627,4.1039459189914,-0.6238846795778256,-1.2477693591556511,0.0879787820908473,0.0,0.0,0.0,0.0,0.0,0.0
3.47,4.315249423828441,8.630498847656883,4.105085725158402,-0.6006772376871803,-1.2013544753743606,0.11398061670019694,0.0,0.0,0.0,0.0,0.0,0.0
3.48,4.309473906819381,8.618947813638762,4.106482607546186,-0.5775517009060194,-1.1551034018120387,0.13968823877844305,0.0,0.0,0.0,0.0,0.0,0.0
3.49,4.303928776503707,8.607857553007413,4.1081335763278295,-0.5545130315674436,-1.1090260631348872,0.16509687816427265,0.0,0.0,0.0,0.0,0.0,0.0
3.5,4.298613115297063,8.597226230594126,4.110035595348758,-0.5315661206643618,-1.0631322413287236,0.1902019020927947,0.0,0.0,0.0,0.0,0.0,0.0
3.5100000000000002,4.293525957423662,8.587051914847324,4.112185583500872,-0.5087157873401448,-1.0174315746802896,0.2149988152114037,0.0,0.0,0.0,0.0,0.0,0.0
3.52,4.288666289639639,8.577332579279277,4.114580416096414,-0.48596677840233526,-0.9719335568046705,0.23948325955426347,0.0,0.0,0.0,0.0,0.0,0.0
3.5300000000000002,4.284033051961045,8.56806610392209,4.117216926241173,-0.46332376785930285,-0.9266475357186057,0.2636510144758285,0.0,0.0,0.0,0.0,0.0,0.0
3.54,4.279625138396248,8.559250276792495,4.120091906206611,-0.4407913564797356,-0.8815827129594712,0.287497996543835,0.0,0.0,0.0,0.0,0.0,0.0
3.5500000000000003,4.275441397682499,8.550882795364998,4.123202108800532,-0.41837407137484417,-0.8367481427496883,0.31102025939219874,0.0,0.0,0.0,0.0,0.0,0.0
3.56,4.271480634026467,8.542961268052935,4.1265442487358746,-0.3960763656031583,-0.7921527312063166,0.3342139935342612,0.0,0.0,0.0,0.0,0.0,0.0
3.5700000000000003,4.26774160784849,8.53548321569698,4.130115003997243,-0.37390261779778805,-0.7478052355955761,0.35707552613684257,0.0,0.0,0.0,0.0,0.0,0.0
3.58,4.264223036530329,8.528446073060659,4.133911017204799,-0.3518571318160228,-0.7037142636320456,0.3796013207555564,0.0,0.0,0.0,0.0,0.0,0.0
3.59,4.260923595166218,8.521847190332435,4.137928896975118,-0.3299441364111206,-0.6598882728222412,0.40178797703185704,0.0,0.0,0.0,0.0,0.0,0.0
3.6,4.257841917316956,8.515683834633911,4.142165219278641,-0.30816778492616437,-0.6163355698523287,0.42363223035228453,0.0,0.0,0.0,0.0,0.0,0.0
3.61,4.254976595766857,8.509953191533715,4.146616528793345,-0.2865321550098263,-0.5730643100196526,0.44513095147040216,0.0,0.0,0.0,0.0,0.0,0.0
3.62,4.252326183283318,8.504652366566637,4.151279340254264,-0.2650412483538993,-0.5300824967077986,0.46628114609189775,0.0,0.0,0.0,0.0,0.0,0.0
3.63,4.249889193378794,8.499778386757589,4.1561501397984975,-0.24369899045244334,-0.4873979809048867,0.4870799544233512,0.0,0.0,0.0,0.0,0.0,0.0
3.64,4.24766410107497,8.49532820214994,4.161225386305349,-0.22250923038238918,-0.44501846076477836,0.5075246506851624,0.0,0.0,0.0,0.0,0.0,0.0
3.65,4.245649343668916,8.491298687337832,4.166501512731241,-0.20147574060543916,-0.4029514812108783,0.52761264258915,0.0,0.0,0.0,0.0,0.0,0.0
3.66,4.2438433215010045,8.487686643002009,4.171974927439054,-0.18060221679110777,-0.36120443358221554,0.5473414707813213,0.0,0.0,0.0,0.0,0.0,0.0
3.67,4.242244398724397,8.484488797448794,4.177642015521557,-0.15989227766072162,-0.31978455532144323,0.5667088082503364,0.0,0.0,0.0,0.0,0.0,0.0
3.68,4.240850904075875,8.48170180815175,4.183499140118579,-0.139349464852224,-0.278698929704448,0.5857124597021868,0.0,0.0,0.0,0.0,0.0,0.0
3.69,4.239661131647819,8.479322263295638,4.189542643727595,-0.11897724280559852,-0.23795448561119703,0.6043503609016071,0.0,0.0,0.0,0.0,0.0,0.0
3.7,4.238673341661132,8.477346683322263,4.195768849507402,-0.09877899866873814,-0.19755799733747628,0.6226205779807634,0.0,0.0,0.0,0.0,0.0,0.0
3.71,4.237885761238896,8.475771522477793,4.20217406257456,-0.0787580422235794,-0.1575160844471588,0.640521306715734,0.0,0.0,0.0,0.0,0.0,0.0
3.72,4.237296585180573,8.474593170361146,4.208754571292274,-0.05891760583231633,-0.11783521166463266,0.6580508717713396,0.0,0.0,0.0,0.0,0.0,0.0
3.73,4.236903976736538,8.473807953473075,4.215506648551423,-0.03926084440350745,-0.0785216888070149,0.6752077259148576,0.0,0.0,0.0,0.0,0.0,0.0
3.74,4.236706068382759,8.473412136765518,4.222426553043414,-0.01979083537788557,-0.03958167075577114,0.691990449199166,0.0,0.0,0.0,0.0,0.0,0.0
3.75,4.236700962595422,8.473401925190844,4.229510530524573,-0.0005105787336756769,-0.0010211574673513538,0.7083977481158721,0.0,0.0,0.0,0.0,0.0,0.0
3.7600000000000002,4.23688673262531,8.47377346525062,4.236754815071762,0.0185770029887757,0.0371540059775514,0.724428454718976,0.0,0.0,0.0,0.0,0.0,0.0
3.77,4.237261423271742,8.474522846543485,4.244155630328959,0.037469064643255,0.07493812928651,0.7400815257196337,0.0,0.0,0.0,0.0,0.0,0.0
3.7800000000000002,4.237823051655893,8.475646103311785,4.251709190744485,0.05616283841502909,0.11232567683005817,0.7553560415525684,0.0,0.0,0.0,0.0,0.0,0.0
3.79,4.238569607993288,8.477139215986575,4.259411702798632,0.07465563373948148,0.14931126747896295,0.7702512054147077,0.0,0.0,0.0,0.0,0.0,0.0
3.8000000000000003,4.23949905636531,8.47899811273062,4.267259366221398,0.0929448372022541,0.1858896744045082,0.784766342276602,0.0,0.0,0.0,0.0,0.0,0.0
3.81,4.240609335489521,8.481218670979041,4.2752483752000705,0.111027912421099,0.222055824842198,0.7989008978671936,0.0,0.0,0.0,0.0,0.0,0.0
3.8200000000000003,4.2418983594886175,8.483796718977235,4.283374919576396,0.1289023999096504,0.2578047998193008,0.8126544376325192,0.0,0.0,0.0,0.0,0.0,0.0
3.83,4.243364018657851,8.486728037315702,4.291635186033084,0.14656591692333817,0.29313183384667635,0.8260266456689022,0.0,0.0,0.0,0.0,0.0,0.0
3.84,4.245004180230728,8.490008360461456,4.300025359269396,0.16401615728765842,0.32803231457531684,0.839017323631221,0.0,0.0,0.0,0.0,0.0,0.0
3.85,4.246816689142818,8.493633378285637,4.308541623165564,0.18125089120901328,0.36250178241802655,0.8516263896168272,0.0,0.0,0.0,0.0,0.0,0.0
3.86,4.2487993687935015,8.497598737587003,4.317180161935822,0.19826796506835243,0.39653593013670485,0.863853877025692,0.0,0.0,0.0,0.0,0.0,0.0
3.87,4.25095002180548,8.50190004361096,4.325937161269795,0.21506530119783168,0.43013060239566336,0.8756999333973602,0.0,0.0,0.0,0.0,0.0,0.0
3.88,4.253266430781887,8.506532861563773,4.334808809462048,0.23164089764071655,0.4632817952814331,0.8871648192252926,0.0,0.0,0.0,0.0,0.0,0.0
3.89,4.255746359060835,8.51149271812167,4.34379129852954,0.24799282789476243,0.49598565578952486,0.8982489067491782,0.0,0.0,0.0,0.0,0.0,0.0
3.9,4.258387551467227,8.516775102934455,4.352880825316798,0.2641192406392935,0.528238481278587,0.9089526787258001,0.0,0.0,0.0,0.0,0.0,0.0
3.91,4.261187735061689,8.522375470123379,4.3620735925885885,0.2800183594462201,0.5600367188924402,0.9192767271790384,0.0,0.0,0.0,0.0,0.0,0.0
3.92,4.264144619886442,8.528289239772883,4.371365810109884,0.2956884824752159,0.5913769649504318,0.9292217521295901,0.0,0.0,0.0,0.0,0.0,0.0
3.93,4.267255899707974,8.534511799415949,4.380753695712934,0.31112798215330256,0.6222559643066051,0.9387885603049981,0.0,0.0,0.0,0.0,0.0,0.0
3.94,4.270519252756365,8.54103850551273,4.39023347635124,0.32633530483907053,0.6526706096781411,0.9479780638305603,0.0,0.0,0.0,0.0,0.0,0.0
3.95,4.273932342461083,8.547864684922166,4.399801389140257,0.3413089704717704,0.6826179409435408,0.9567912789017173,0.0,0.0,0.0,0.0,0.0,0.0
3.96,4.277492818183138,8.554985636366276,4.409453682384642,0.3560475722055258,0.7120951444110516,0.9652293244384923,0.0,0.0,0.0,0.0,0.0,0.0
3.97,4.281198315943427,8.562396631886854,4.419186616591868,0.3705497760288925,0.741099552057785,0.9732934207225679,0.0,0.0,0.0,0.0,0.0,0.0
3.98,4.285046459147127,8.570092918294254,4.428996465472044,0.3848143203700178,0.7696286407400356,0.980984888017586,0.0,0.0,0.0,0.0,0.0,0.0
3.99,4.289034859304003,8.578069718608006,4.438879516923776,0.39884001568763955,0.7976800313752791,0.988305145173249,0.0,0.0,0.0,0.0,0.0,0.0
4.0,4.293161116744485,8.58632223348897,4.448832074005914,0.41262574404816327,0.8252514880963265,0.9952557082138036,0.0,0.0,0.0,0.0,0.0,0.0
4.01,4.297422821331375,8.59484564266275,4.458850455895028,0.4261704586890695,0.852340917378139,1.0018381889114882,0.0,0.0,0.0,0.0,0.0,0.0
4.0200000000000005,4.301817553167064,8.603635106334128,4.468930998828483,0.4394731835688944,0.8789463671377888,1.0080542933455228,0.0,0.0,0.0,0.0,0.0,0.0
4.03,4.306342883296105,8.61268576659221,4.479070057032955,0.4525330129040293,0.9050660258080586,1.0139058204472133,0.0,0.0,0.0,0.0,0.0,0.0
4.04,4.310996374403031,8.621992748806061,4.489264003638273,0.46534911069258605,0.9306982213851721,1.0193946605317525,0.0,0.0,0.0,0.0,0.0,0.0
4.05,4.315775581505286,8.631551163010572,4.499509231576446,0.47792071022558424,0.9558414204511685,1.0245227938172865,0.0,0.0,0.0,0.0,0.0,0.0
4.0600000000000005,4.320678052641143,8.641356105282286,4.509802154465764,0.49024711358569667,0.9804942271713933,1.0292922889318206,0.0,0.0,0.0,0.0,0.0,0.0
4.07,4.325701329552481,8.651402659104962,4.52013920747985,0.5023276911338111,1.0046553822676223,1.0337053014085291,0.0,0.0,0.0,0.0,0.0,0.0
4.08,4.330842948362317,8.661685896724634,4.53051684820155,0.5141618809836612,1.0283237619673224,1.0377640721700483,0.0,0.0,0.0,0.0,0.0,0.0
4.09,4.336100440246965,8.67220088049393,4.540931557461573,0.5257491884647669,1.0514983769295339,1.0414709260023012,0.0,0.0,0.0,0.0,0.0,0.0
4.1,4.341471332102705,8.68294266420541,4.551379840161758,0.5370891855739448,1.0741783711478896,1.0448282700184308,0.0,0.0,0.0,0.0,0.0,0.0
4.11,4.346953147206861,8.693906294413722,4.561858226082892,0.5481815104156376,1.0963630208312751,1.0478385921133937,0.0,0.0,0.0,0.0,0.0,0.0
4.12,4.352543405873174,8.705086811746348,4.572363270676989,0.5590258666313098,1.1180517332626196,1.0505044594097728,0.0,0.0,0.0,0.0,0.0,0.0
4.13,4.358239626101356,8.716479252202712,4.582891555843943,0.5696220228181674,1.1392440456363349,1.0528285166953655,0.0,0.0,0.0,0.0,0.0,0.0
4.14,4.36403932422073,8.72807864844146,4.593439690692474,0.5799698119374517,1.1599396238749033,1.0548134848530932,0.0,0.0,0.0,0.0,0.0,0.0
4.15,4.369940015527856,8.739880031055712,4.604004312285312,0.590069130712559,1.180138261425118,1.0564621592837884,0.0,0.0,0.0,0.0,0.0,0.0
4.16,4.375939214918028,8.751878429836056,4.614582086368536,0.5999199390172367,1.1998398780344735,1.057777408322391,0.0,0.0,0.0,0.0,0.0,0.0
